ville,population,ventes,profit,latitude,longitude
Abidjan,5600000,120000,35000,5.359951,-4.008256
Bouake,832000,65000,18000,7.690556,-5.030278
Yamoussoukro,422000,45000,12000,6.827623,-5.289343
San Pedro,390000,52000,15000,4.74851,-6.6363
Korhogo,286000,38000,9000,9.45803,-5.62961
Daloa,319000,41000,11000,6.87735,-6.45022
Man,241000,29000,7000,7.41251,-7.55383
Gagnoa,245000,35000,8500,6.13193,-5.9506
Bondoukou,120000,22000,6000,8.0402,-2.8
Odienne,50000,18000,4500,9.51,-7.57
